Truck_ID,Poids_reel,Poids_declare,Ville,Latitude,Longitude
T1,0,2000,Paris,48.8566,2.3522
T2,1500,2000,Madrid,40.4168,-3.7038
T3,2000,2000,Berlin,52.5200,13.4050
T4,0,0,Lisbonne,38.7169,-9.1398
T5,1000,2000,Rome,41.9028,12.4964
T6,0,2500,Casablanca,33.5731,-7.5898
T7,500,2000,Rabat,34.0209,-6.8416
T8,0,1800,Fes,34.0333,-5.0000
T9,1000,2200,Marrakech,31.6295,-7.9811
T10,0,2000,Tanger,35.7595,-5.8339